[{"id": "741957", "title": "대전솔로몬로파크", "address": "대전광역시 유성구 엑스포로 219-39 (원촌동)", "image": "https://tong.visitkorea.or.kr/cms/resource/84/4080484_image2_1.jpg", "lat": 36.3773585309, "lng": 127.4015597328}, {"id": "127641", "title": "대전오월드", "address": "대전광역시 중구 사정공원로 70", "image": "https://tong.visitkorea.or.kr/cms/resource/97/3513197_image2_1.jpg", "lat": 36.2872648473, "lng": 127.4001108604}, {"id": "3455349", "title": "3.8민주의거기념관", "address": "대전광역시 중구 선화서로 46 (선화동)", "image": "https://tong.visitkorea.or.kr/cms/resource/76/3454576_image2_1.jpg", "lat": 36.3278257261, "lng": 127.4185267192}, {"id": "127663", "title": "대청댐", "address": "대전광역시 대덕구 대청로 618-136 (미호동)", "image": "https://tong.visitkorea.or.kr/cms/resource_photo/65/3403365_image2_1.jpg", "lat": 36.4744348881, "lng": 127.4815381382}, {"id": "2758666", "title": "보라매공원(대전)", "address": "대전광역시 서구 둔산동", "image": "https://tong.visitkorea.or.kr/cms/resource/15/3565615_image2_1.jpg", "lat": 36.3536, "lng": 127.3849}, {"id": "1083960", "title": "식장산 문화공원(해돋이전망대)", "address": "대전광역시 동구 세천동 산43-5", "image": "https://tong.visitkorea.or.kr/cms/resource/02/2661802_image2_1.JPG", "lat": 36.3023172606, "lng": 127.4805721964}, {"id": "129438", "title": "장태산자연휴양림", "address": "대전광역시 서구 장안로 461", "image": "https://tong.visitkorea.or.kr/cms/resource/42/3569842_image2_1.jpg", "lat": 36.2159112482, "lng": 127.3412573201}, {"id": "741658", "title": "한밭수목원", "address": "대전광역시 서구 둔산대로 169", "image": "https://tong.visitkorea.or.kr/cms/resource_photo/22/3514122_image2_1.jpg", "lat": 36.3685826107, "lng": 127.3862516305}, {"id": "3588718", "title": "갑천 생태호수공원", "address": "대전광역시 서구 도안동", "image": "https://tong.visitkorea.or.kr/cms/resource/88/4055788_image2_1.png", "lat": 36.33487, "lng": 127.351268}, {"id": "128344", "title": "대전시민천문대", "address": "대전광역시 유성구 과학로 213-48", "image": "https://tong.visitkorea.or.kr/cms/resource/95/4065395_image2_1.jpg", "lat": 36.3814915858, "lng": 127.3535960722}, {"id": "2612261", "title": "대동하늘공원", "address": "대전광역시 동구 동대전로110번길 182 (대동)", "image": "https://tong.visitkorea.or.kr/cms/resource/67/4055767_image2_1.png", "lat": 36.3317158535251, "lng": 127.451566217741}, {"id": "2775492", "title": "보문산큰나무전망대", "address": "대전광역시 중구 보문산공원로530번길 86", "image": "", "lat": 36.3121400832581, "lng": 127.424938360672}, {"id": "3031451", "title": "회덕메타세쿼이아길", "address": "대전광역시 대덕구 신대동", "image": "https://tong.visitkorea.or.kr/cms/resource/41/3031441_image2_1.JPG", "lat": 36.406348, "lng": 127.420653}, {"id": "3080289", "title": "보문산", "address": "대전광역시 중구 사정공원로 160 (사정동)", "image": "https://tong.visitkorea.or.kr/cms/resource/11/530511_image2_1.jpg", "lat": 36.301723, "lng": 127.421545}, {"id": "3074308", "title": "정부대전청사 자연마당", "address": "대전광역시 서구 둔산동", "image": "https://tong.visitkorea.or.kr/cms/resource/83/3051683_image2_1.JPG", "lat": 36.3588, "lng": 127.385}, {"id": "3051657", "title": "명상정원", "address": "대전광역시 동구 추동", "image": "https://tong.visitkorea.or.kr/cms/resource/89/3051589_image2_1.JPG", "lat": 36.3795, "lng": 127.486}, {"id": "3345873", "title": "논골어린이공원", "address": "대전광역시 유성구 노은동", "image": "https://tong.visitkorea.or.kr/cms/resource/60/3349460_image2_1.jpg", "lat": 36.371907435084566, "lng": 127.32010757568834}, {"id": "3346724", "title": "아름드리소공원", "address": "대전광역시 서구 도안동", "image": "https://tong.visitkorea.or.kr/cms/resource/81/3349481_image2_1.jpg", "lat": 36.316069, "lng": 127.350318}, {"id": "3347469", "title": "중촌시민공원", "address": "대전광역시 중구 중촌동", "image": "https://tong.visitkorea.or.kr/cms/resource/09/3349509_image2_1.jpg", "lat": 36.3427961, "lng": 127.4052779}, {"id": "3383095", "title": "들의공원", "address": "대전광역시 서구 청사로 189 (둔산동)", "image": "https://tong.visitkorea.or.kr/cms/resource/96/3383096_image2_1.jpg", "lat": 36.3609755, "lng": 127.3888986}, {"id": "3357384", "title": "초지공원 (대별수변공원)", "address": "대전광역시 동구 대전로 97 (대별동)", "image": "https://tong.visitkorea.or.kr/cms/resource/87/3357287_image2_1.jpg", "lat": 36.27684538751924, "lng": 127.46281229682904}, {"id": "231937", "title": "대전 회덕 동춘당", "address": "대전광역시 대덕구 동춘당로 80 (송촌동)", "image": "https://tong.visitkorea.or.kr/cms/resource/66/3344566_image2_1.jpg", "lat": 36.364835765620334, "lng": 127.44128023729962}, {"id": "3074319", "title": "갈마공원", "address": "대전광역시 서구 한밭대로 664 (갈마동)", "image": "https://tong.visitkorea.or.kr/cms/resource/35/3051735_image2_1.JPG", "lat": 36.35708716770597, "lng": 127.37217091483589}, {"id": "3074323", "title": "국립 대전 현충원", "address": "대전광역시 유성구 현충원로 251 (갑동)", "image": "https://tong.visitkorea.or.kr/cms/resource/88/3051788_image2_1.JPG", "lat": 36.36325033293814, "lng": 127.29918220152526}, {"id": "3074307", "title": "둔산대공원", "address": "대전광역시 서구 둔산대로 181 (만년동)", "image": "https://tong.visitkorea.or.kr/cms/resource/52/3051652_image2_1.JPG", "lat": 36.36634127163829, "lng": 127.3893828886063}, {"id": "250279", "title": "둔산선사유적지", "address": "대전광역시 서구 대덕대로317번길 9 (월평동)", "image": "https://tong.visitkorea.or.kr/cms/resource/82/3033582_image2_1.JPG", "lat": 36.36095153264068, "lng": 127.37893693951304}, {"id": "2766470", "title": "방동저수지", "address": "대전광역시 유성구 성북로 80-5 (방동)", "image": "https://tong.visitkorea.or.kr/cms/resource/08/3374808_image2_1.jpg", "lat": 36.285861, "lng": 127.306259}, {"id": "3435502", "title": "펫터테인먼트", "address": "대전광역시 서구 계룡로354번길 175 (갈마동)", "image": "https://tong.visitkorea.or.kr/cms/resource/67/4005867_image2_1.jpg", "lat": 36.345579379602135, "lng": 127.36762956345119}, {"id": "2784718", "title": "대전 괴곡동 느티나무", "address": "대전광역시 서구 괴곡동", "image": "https://tong.visitkorea.or.kr/cms/resource/92/3542492_image2_1.jpg", "lat": 36.2862947005013, "lng": 127.354298603827}, {"id": "2760707", "title": "유성온천공원", "address": "대전광역시 유성구 계룡로123번길 52 (봉명동)", "image": "https://tong.visitkorea.or.kr/cms/resource/98/3521398_image2_1.jpg", "lat": 36.3553, "lng": 127.3437}, {"id": "2460289", "title": "한국생명공학연구원", "address": "대전광역시 유성구 과학로 125", "image": "https://tong.visitkorea.or.kr/cms/resource/68/3512668_image2_1.jpg", "lat": 36.3771144392989, "lng": 127.359473406621}, {"id": "127683", "title": "구봉산(대전)", "address": "대전광역시 서구 상보안윗길 160", "image": "https://tong.visitkorea.or.kr/cms/resource/84/3513184_image2_1.jpg", "lat": 36.283836397008, "lng": 127.33943342677}, {"id": "2458926", "title": "It's 수 홍보관", "address": "대전광역시 대덕구 신탄진로756번안길 223", "image": "https://tong.visitkorea.or.kr/cms/resource/62/3512662_image2_1.jpeg", "lat": 36.4432608014385, "lng": 127.445052278538}, {"id": "3490412", "title": "식장산 정상쉼터", "address": "대전광역시 동구 낭월동", "image": "https://tong.visitkorea.or.kr/cms/resource/86/3490386_image2_1.jpg", "lat": 36.301194749441, "lng": 127.488962815463}, {"id": "2633904", "title": "대청호 벚꽃길", "address": "대전광역시 동구 신상동", "image": "https://tong.visitkorea.or.kr/cms/resource/00/3489900_image2_1.jpg", "lat": 36.3665, "lng": 127.5043}, {"id": "2460286", "title": "ETRI 정보통신전시관", "address": "대전광역시 유성구 가정로 218", "image": "", "lat": 36.3825999937504, "lng": 127.365206040547}, {"id": "2460287", "title": "한국기계연구원", "address": "대전광역시 유성구 가정북로 156 (장동)", "image": "", "lat": 36.396582782929386, "lng": 127.35648613949228}, {"id": "2808100", "title": "바구스스파", "address": "대전광역시 서구 원도안로207번길 41 (도안동)", "image": "", "lat": 36.3217165061654, "lng": 127.34249316894}, {"id": "2931882", "title": "대전신세계 아트앤사이언스 (Art&Science)", "address": "대전광역시 유성구 엑스포로 1", "image": "", "lat": 36.3751011968149, "lng": 127.382062964294}, {"id": "2610573", "title": "백골산성", "address": "대전광역시 동구 산하동", "image": "", "lat": 36.3643, "lng": 127.5112}, {"id": "2554222", "title": "대전MBC", "address": "대전광역시 유성구 엑스포로 161", "image": "", "lat": 36.376015243591, "lng": 127.397003174815}, {"id": "2779504", "title": "한빛탑", "address": "대전광역시 유성구 대덕대로 480", "image": "https://tong.visitkorea.or.kr/cms/resource/29/3564829_image2_1.jpg", "lat": 36.3766, "lng": 127.3882}, {"id": "2605906", "title": "철도관사촌(솔랑시울길)", "address": "대전광역시 동구 소제동", "image": "https://tong.visitkorea.or.kr/cms/resource/33/3374733_image2_1.jpg", "lat": 36.3359402120721, "lng": 127.436589371795}, {"id": "2738026", "title": "엑스포다리", "address": "대전광역시 유성구 도룡동", "image": "https://tong.visitkorea.or.kr/cms/resource/82/3564982_image2_1.jpg", "lat": 36.3726988140599, "lng": 127.387998572644}, {"id": "2766467", "title": "세천유원지", "address": "대전광역시 동구 세천공원로 62", "image": "https://tong.visitkorea.or.kr/cms/resource/88/3344288_image2_1.jpg", "lat": 36.3283419601548, "lng": 127.483126793722}, {"id": "1622854", "title": "세천공원", "address": "대전광역시 동구 세천공원로 68", "image": "https://tong.visitkorea.or.kr/cms/resource/45/3033345_image2_1.JPG", "lat": 36.3294723960132, "lng": 127.484018344062}, {"id": "2758677", "title": "사정공원", "address": "대전광역시 중구 사정동", "image": "https://tong.visitkorea.or.kr/cms/resource/72/3542572_image2_1.jpg", "lat": 36.2991, "lng": 127.4096}, {"id": "1623995", "title": "단재신채호선생생가지", "address": "대전광역시 중구 단재로229번길 47", "image": "", "lat": 36.2325688241863, "lng": 127.410797440642}, {"id": "1865944", "title": "한국핵융합에너지연구원", "address": "대전광역시 유성구 과학로 169-148", "image": "https://tong.visitkorea.or.kr/cms/resource/73/2431973_image2_1.jpg", "lat": 36.373012058476, "lng": 127.354104588797}, {"id": "2738011", "title": "대전곤충생태관", "address": "대전광역시 서구 둔산대로 191", "image": "https://tong.visitkorea.or.kr/cms/resource/07/3565607_image2_1.jpg", "lat": 36.3669495345965, "lng": 127.389656904621}, {"id": "2775506", "title": "대전목재문화체험장", "address": "대전광역시 중구 보문산공원로 442", "image": "https://tong.visitkorea.or.kr/cms/resource/28/3347028_image2_1.jpg", "lat": 36.309770903605, "lng": 127.423841308233}, {"id": "2911386", "title": "대전 치유의 숲", "address": "대전광역시 중구 무수동 195", "image": "https://tong.visitkorea.or.kr/cms/resource/47/3542547_image2_1.jpg", "lat": 36.2899674957006, "lng": 127.411012521371}, {"id": "2930677", "title": "대전반려동물공원", "address": "대전광역시 유성구 금고길 7", "image": "", "lat": 36.4597299541423, "lng": 127.384460411507}, {"id": "126838", "title": "뿌리공원", "address": "대전광역시 중구 뿌리공원로 79 뿌리공원", "image": "http://tong.visitkorea.or.kr/cms/resource/87/3569387_image2_1.jpg", "lat": 36.2845065219, "lng": 127.3864280203}, {"id": "1089992", "title": "대전교통문화연수원", "address": "대전광역시 유성구 대덕대로 480", "image": "http://tong.visitkorea.or.kr/cms/resource/29/3564729_image2_1.jpg", "lat": 36.3772070293, "lng": 127.3863644022}, {"id": "1125480", "title": "상소동 산림욕장", "address": "대전광역시 동구 상소동 산 1-1", "image": "http://tong.visitkorea.or.kr/cms/resource/55/3320755_image2_1.jpg", "lat": 36.2313640959, "lng": 127.4710996743}, {"id": "1964622", "title": "스카이로드", "address": "대전광역시 중구 은행동", "image": "http://tong.visitkorea.or.kr/cms/resource/65/3564665_image2_1.jpg", "lat": 36.3291465966, "lng": 127.4278175564}, {"id": "1623750", "title": "갑천", "address": "대전광역시 유성구 구성동", "image": "http://tong.visitkorea.or.kr/cms/resource/38/3564738_image2_1.jpg", "lat": 36.3628471396, "lng": 127.3626169166}, {"id": "2758282", "title": "광수사", "address": "대전광역시 유성구 학하서로63번길 26 (계산동)", "image": "http://tong.visitkorea.or.kr/cms/resource/62/3564962_image2_1.jpg", "lat": 36.3423455726, "lng": 127.2985204289}, {"id": "2789662", "title": "동화울수변공원", "address": "대전광역시 유성구 관평동", "image": "http://tong.visitkorea.or.kr/cms/resource/49/3564849_image2_1.jpg", "lat": 36.4246461906, "lng": 127.3946179292}, {"id": "2775510", "title": "은구비공원", "address": "대전광역시 유성구 노은동로 166 (지족동)", "image": "http://tong.visitkorea.or.kr/cms/resource/70/3564870_image2_1.jpg", "lat": 36.3750839329, "lng": 127.3233784299}, {"id": "2758252", "title": "남선공원", "address": "대전광역시 서구 남선로 66", "image": "http://tong.visitkorea.or.kr/cms/resource/24/3565624_image2_1.jpg", "lat": 36.34530253, "lng": 127.3967004547}, {"id": "2738037", "title": "대전엑스포시민광장", "address": "대전광역시 서구 둔산대로 169", "image": "http://tong.visitkorea.or.kr/cms/resource/00/3565600_image2_1.jpg", "lat": 36.3688691234, "lng": 127.3880005938}, {"id": "2743325", "title": "대전광역시청 시민잔디광장", "address": "대전광역시 서구 둔산로 100", "image": "http://tong.visitkorea.or.kr/cms/resource/86/3565586_image2_1.jpg", "lat": 36.3504850621, "lng": 127.3849680306}, {"id": "1622775", "title": "삼매당", "address": "대전광역시 동구 가양동", "image": "http://tong.visitkorea.or.kr/cms/resource/30/3565230_image2_1.jpg", "lat": 36.345845193, "lng": 127.4562173419}, {"id": "1955668", "title": "남간정사", "address": "대전광역시 동구 충정로 53", "image": "http://tong.visitkorea.or.kr/cms/resource/40/3565240_image2_1.jpg", "lat": 36.3477310948, "lng": 127.456620032}, {"id": "945477", "title": "우암사적공원", "address": "대전광역시 동구 충정로 53", "image": "http://tong.visitkorea.or.kr/cms/resource/75/3565175_image2_1.jpg", "lat": 36.3481671989, "lng": 127.4589725875}, {"id": "2752861", "title": "대동벽화마을", "address": "대전광역시 동구 백룡로48번길 일대", "image": "http://tong.visitkorea.or.kr/cms/resource/64/3565164_image2_1.jpg", "lat": 36.3336214935, "lng": 127.4507848261}, {"id": "1622646", "title": "길치문화공원", "address": "대전광역시 대덕구 신상로 65-100 (비래동)", "image": "http://tong.visitkorea.or.kr/cms/resource/54/3565054_image2_1.jpg", "lat": 36.362129508, "lng": 127.4599887832}, {"id": "3080290", "title": "서대전공원", "address": "대전광역시 중구 계룡로904번길 30 (문화동)", "image": "http://tong.visitkorea.or.kr/cms/resource/35/3063035_image2_1.JPG", "lat": 36.3209750271, "lng": 127.4119386413}, {"id": "2913058", "title": "을미기공원", "address": "대전광역시 대덕구 대덕대로1448번길 120 (신일동)", "image": "http://tong.visitkorea.or.kr/cms/resource/45/2913045_image2_1.jpg", "lat": 36.4427777451, "lng": 127.4113409377}, {"id": "2913032", "title": "금강로하스산호빛공원", "address": "대전광역시 대덕구 석봉동", "image": "http://tong.visitkorea.or.kr/cms/resource/25/2913025_image2_1.jpg", "lat": 36.4541238369, "lng": 127.4208120024}, {"id": "128413", "title": "찬샘마을", "address": "대전광역시 동구 냉천로 703", "image": "http://tong.visitkorea.or.kr/cms/resource/75/3542275_image2_1.jpg", "lat": 36.4173818704, "lng": 127.4796577394}, {"id": "803712", "title": "무수천하마을", "address": "대전광역시 중구 운남로85번길 5 (무수동)", "image": "http://tong.visitkorea.or.kr/cms/resource/38/3542538_image2_1.jpg", "lat": 36.2773188187, "lng": 127.4069819337}, {"id": "1125505", "title": "추동인공생태습지", "address": "대전광역시 동구 추동", "image": "http://tong.visitkorea.or.kr/cms/resource/81/3542481_image2_1.jpg", "lat": 36.3724451577, "lng": 127.4691182418}, {"id": "2407303", "title": "금강로하스대청공원", "address": "대전광역시 대덕구 미호동", "image": "http://tong.visitkorea.or.kr/cms/resource/50/3542250_image2_1.jpg", "lat": 36.4736697622, "lng": 127.4735845216}, {"id": "2689761", "title": "삼정생태공원", "address": "대전광역시 대덕구 대청로424번길 510", "image": "http://tong.visitkorea.or.kr/cms/resource/21/3542221_image2_1.jpg", "lat": 36.4497501466, "lng": 127.4661608403}, {"id": "2689820", "title": "장동만남공원", "address": "대전광역시 대덕구 장동 353", "image": "http://tong.visitkorea.or.kr/cms/resource/99/3542199_image2_1.jpg", "lat": 36.4132232824, "lng": 127.438644856}, {"id": "2722927", "title": "대전트래블라운지", "address": "대전광역시 동구 중앙로 187-1", "image": "http://tong.visitkorea.or.kr/cms/resource/65/3378565_image2_1.jpg", "lat": 36.3305103683, "lng": 127.4300006577}, {"id": "2758246", "title": "대청호자연수변공원", "address": "대전광역시 동구 추동", "image": "http://tong.visitkorea.or.kr/cms/resource/55/3542255_image2_1.jpg", "lat": 36.3726452347, "lng": 127.4747177362}, {"id": "2758588", "title": "흑석유원지", "address": "대전광역시 서구 흑석동", "image": "http://tong.visitkorea.or.kr/cms/resource/86/3542486_image2_1.jpg", "lat": 36.260244542, "lng": 127.3376163705}, {"id": "2758646", "title": "마치광장", "address": "대전광역시 서구 구봉로131번길 27", "image": "http://tong.visitkorea.or.kr/cms/resource/16/3542516_image2_1.jpg", "lat": 36.297737476, "lng": 127.3375042576}, {"id": "2758655", "title": "테미공원", "address": "대전광역시 중구 보문로199번길 37-36 (대흥동)", "image": "http://tong.visitkorea.or.kr/cms/resource/65/3526665_image2_1.jpg", "lat": 19.69442748, "lng": 117.9925662504}, {"id": "1909639", "title": "대흥동 문화예술의거리", "address": "대전광역시 중구 대흥동", "image": "http://tong.visitkorea.or.kr/cms/resource/50/3526650_image2_1.jpg", "lat": 36.3258969262, "lng": 127.4254345237}, {"id": "2662682", "title": "소제동", "address": "대전광역시 동구 소제동 일원", "image": "http://tong.visitkorea.or.kr/cms/resource/62/3526662_image2_1.jpg", "lat": 36.3342267754, "lng": 127.4392858375}, {"id": "2775503", "title": "대전역 동광장", "address": "대전광역시 동구 새둑길 143 (소제동)", "image": "http://tong.visitkorea.or.kr/cms/resource/71/3526671_image2_1.jpg", "lat": 36.3342294989, "lng": 127.4362194451}, {"id": "2662681", "title": "국립대전숲체원", "address": "대전광역시 유성구 숲체원로 124 (성북동)", "image": "", "lat": 36.3235448131, "lng": 127.2910049426}, {"id": "126003", "title": "국립대전현충원 보훈둘레길", "address": "대전광역시 유성구 현충원로 251", "image": "http://tong.visitkorea.or.kr/cms/resource/63/3512563_image2_1.jpg", "lat": 36.3622460736, "lng": 127.2985587765}, {"id": "3454325", "title": "꿀잼도시 대전홍보관", "address": "대전광역시 유성구 엑스포로 1 (도룡동)", "image": "http://tong.visitkorea.or.kr/cms/resource/96/3452996_image2_1.jpg", "lat": 36.3752377361, "lng": 127.382198162}, {"id": "1623668", "title": "인쇄거리", "address": "대전광역시 동구 중앙로203번길 82-1 (정동)", "image": "http://tong.visitkorea.or.kr/cms/resource/66/3033366_image2_1.JPG", "lat": 36.3341266098, "lng": 127.4293367291}, {"id": "1058971", "title": "숭현서원지", "address": "대전광역시 유성구 엑스포로251번길 36", "image": "http://tong.visitkorea.or.kr/cms/resource/09/3065109_image2_1.JPG", "lat": 36.3799348117, "lng": 127.4041960664}, {"id": "1954031", "title": "진잠향교", "address": "대전광역시 유성구 교촌로 6 (교촌동)", "image": "http://tong.visitkorea.or.kr/cms/resource/73/3032273_image2_1.JPG", "lat": 36.3001090289, "lng": 127.3149756527}, {"id": "2911885", "title": "대청호 마산동 쉼터", "address": "대전광역시 동구 마산동", "image": "http://tong.visitkorea.or.kr/cms/resource/72/2911872_image2_1.jpg", "lat": 36.3812776529, "lng": 127.4787615831}, {"id": "1623687", "title": "용화사(대전)", "address": "대전광역시 서구 가수원로 71-12", "image": "http://tong.visitkorea.or.kr/cms/resource/05/3077505_image2_1.JPG", "lat": 36.2998707966, "lng": 127.3505613663}, {"id": "1622686", "title": "초연물외암각", "address": "대전광역시 대덕구 비래동", "image": "http://tong.visitkorea.or.kr/cms/resource/47/3032947_image2_1.JPG", "lat": 36.3728281082, "lng": 127.4500838223}, {"id": "316266", "title": "복전암", "address": "대전광역시 중구 부사로 70", "image": "http://tong.visitkorea.or.kr/cms/resource/01/3071501_image2_1.JPG", "lat": 36.3068270309, "lng": 127.4336870816}, {"id": "2610587", "title": "왕버드나무군락지", "address": "대전광역시 대덕구 미호동", "image": "http://tong.visitkorea.or.kr/cms/resource/93/3032893_image2_1.JPG", "lat": 36.4686007791, "lng": 127.4669297}, {"id": "1622695", "title": "이시직공정려각", "address": "대전광역시 대덕구 송촌동", "image": "http://tong.visitkorea.or.kr/cms/resource/75/3033275_image2_1.JPG", "lat": 36.3619180566, "lng": 127.4394906219}, {"id": "1622717", "title": "옥오재", "address": "대전광역시 대덕구 계족로 750", "image": "http://tong.visitkorea.or.kr/cms/resource/97/3033197_image2_1.JPG", "lat": 36.3780715475, "lng": 127.4273190487}, {"id": "1622660", "title": "옥류각", "address": "대전광역시 대덕구 비래골길 47-73 (비래동)", "image": "http://tong.visitkorea.or.kr/cms/resource/39/3032939_image2_1.JPG", "lat": 36.3727420263, "lng": 127.4511642837}, {"id": "1622788", "title": "박팽년선생유허비", "address": "대전광역시 동구 우암로326번길 28", "image": "http://tong.visitkorea.or.kr/cms/resource/99/3071299_image2_1.JPG", "lat": 36.3478532292, "lng": 127.4524342918}, {"id": "1622603", "title": "법동 석장승", "address": "대전광역시 대덕구 법동", "image": "http://tong.visitkorea.or.kr/cms/resource/54/3033154_image2_1.JPG", "lat": 36.3676061288, "lng": 127.430166301}, {"id": "705678", "title": "장동산림욕장", "address": "대전광역시 대덕구 산디로 79-70", "image": "http://tong.visitkorea.or.kr/cms/resource/44/3033644_image2_1.jpg", "lat": 36.4055714493, "lng": 127.442530828}, {"id": "1954045", "title": "회덕향교", "address": "대전광역시 대덕구 대전로1397번안길 126", "image": "http://tong.visitkorea.or.kr/cms/resource/23/3033223_image2_1.JPG", "lat": 36.3842012982, "lng": 127.4215110682}, {"id": "1622562", "title": "취백정", "address": "대전광역시 대덕구 대청로526번길 45-24", "image": "http://tong.visitkorea.or.kr/cms/resource/83/3033183_image2_1.JPG", "lat": 36.4679370467, "lng": 127.4714265378}, {"id": "298208", "title": "내원사(대전)", "address": "대전광역시 서구 배재로197번길 200", "image": "http://tong.visitkorea.or.kr/cms/resource/79/3034979_image2_1.JPG", "lat": 36.3226600246, "lng": 127.3600265707}, {"id": "1622728", "title": "제월당", "address": "대전광역시 대덕구 계족로 750", "image": "http://tong.visitkorea.or.kr/cms/resource/18/3033118_image2_1.JPG", "lat": 36.3780715475, "lng": 127.4273190487}, {"id": "1623937", "title": "보문산마애여래좌상", "address": "대전광역시 중구 석교동", "image": "http://tong.visitkorea.or.kr/cms/resource/84/3063084_image2_1.JPG", "lat": 36.3069770168, "lng": 127.4338565068}, {"id": "1623927", "title": "봉소루", "address": "대전광역시 중구 봉소루로 29", "image": "http://tong.visitkorea.or.kr/cms/resource/18/3063118_image2_1.JPG", "lat": 36.3090796806, "lng": 127.4409585926}, {"id": "1623828", "title": "안동권씨유회당종가일원", "address": "대전광역시 중구 운남로 63", "image": "http://tong.visitkorea.or.kr/cms/resource/60/3063060_image2_1.JPG", "lat": 36.2776965146, "lng": 127.4047932299}, {"id": "1623977", "title": "창계숭절사", "address": "대전광역시 중구 대둔산로137번길 67", "image": "http://tong.visitkorea.or.kr/cms/resource/00/3059500_image2_1.JPG", "lat": 36.2844479441, "lng": 127.3723015063}, {"id": "1623767", "title": "사교루", "address": "대전광역시 유성구 대덕대로556번길 104", "image": "http://tong.visitkorea.or.kr/cms/resource/28/3032328_image2_1.JPG", "lat": 36.385930928, "lng": 127.3805730172}, {"id": "1126556", "title": "김정선생묘소일원", "address": "대전광역시 동구 회남로 117", "image": "http://tong.visitkorea.or.kr/cms/resource/46/3033446_image2_1.JPG", "lat": 36.3576223794, "lng": 127.4986187867}, {"id": "1623810", "title": "유회당사당", "address": "대전광역시 중구 운남로85번길 32-20", "image": "http://tong.visitkorea.or.kr/cms/resource/51/3063051_image2_1.JPG", "lat": 36.2788325595, "lng": 127.4083789899}, {"id": "1622872", "title": "문충사", "address": "대전광역시 동구 동부로73번길 44", "image": "http://tong.visitkorea.or.kr/cms/resource/90/3033490_image2_1.JPG", "lat": 36.3243616037, "lng": 127.4598925974}, {"id": "127542", "title": "보문산 행복 숲 둘레길", "address": "대전광역시 중구 대사동", "image": "http://tong.visitkorea.or.kr/cms/resource/87/3062387_image2_1.JPG", "lat": 36.3093154326, "lng": 127.4222602576}, {"id": "125429", "title": "만인산푸른학습원", "address": "대전광역시 동구 산내로 106", "image": "http://tong.visitkorea.or.kr/cms/resource/01/3033301_image2_1.JPG", "lat": 36.2021449168, "lng": 127.4545991589}, {"id": "1955818", "title": "도산서원(대전)", "address": "대전광역시 서구 남선로 8", "image": "http://tong.visitkorea.or.kr/cms/resource/24/3035024_image2_1.JPG", "lat": 36.3440748834, "lng": 127.3961838684}, {"id": "125858", "title": "유성온천지구", "address": "대전광역시 유성구 봉명동 574", "image": "http://tong.visitkorea.or.kr/cms/resource/42/3035142_image2_1.JPG", "lat": 36.355344905, "lng": 127.3448131576}, {"id": "1907645", "title": "발명교육센터 창의발명체험관", "address": "대전광역시 유성구 과학로 82", "image": "http://tong.visitkorea.or.kr/cms/resource/24/3453224_image2_1.JPG", "lat": 36.3772399899, "lng": 127.3655718175}, {"id": "1958042", "title": "유성 관광특구", "address": "대전광역시 유성구 대덕대로 480", "image": "http://tong.visitkorea.or.kr/cms/resource/16/3032116_image2_1.JPG", "lat": 36.3776292298, "lng": 127.3878559242}, {"id": "250324", "title": "수운교도솔천", "address": "대전광역시 유성구 자운로245번길 80", "image": "http://tong.visitkorea.or.kr/cms/resource/65/3032165_image2_1.JPG", "lat": 36.4198652044, "lng": 127.339575765}, {"id": "125994", "title": "대전엑스포과학공원", "address": "대전광역시 유성구 대덕대로 480 (도룡동)", "image": "http://tong.visitkorea.or.kr/cms/resource/27/3486427_image2_1.jpg", "lat": 36.3759931713, "lng": 127.3802705364}, {"id": "2782788", "title": "대전 엑스포 아쿠아리움", "address": "대전광역시 유성구 엑스포로 1", "image": "http://tong.visitkorea.or.kr/cms/resource/47/3371547_image2_1.jpg", "lat": 36.3751571874, "lng": 127.3820481776}, {"id": "128878", "title": "자광사(대전)", "address": "대전광역시 유성구 학하동로63번길 50-8 (학하동)", "image": "http://tong.visitkorea.or.kr/cms/resource/29/2689629_image2_1.jpg", "lat": 36.3378741127, "lng": 127.3126776163}, {"id": "2766959", "title": "대전 신흥사", "address": "대전광역시 유성구 동서대로735번길 24-9", "image": "http://tong.visitkorea.or.kr/cms/resource/35/2767235_image2_1.jpg", "lat": 36.3341528947, "lng": 127.3453470164}, {"id": "2732202", "title": "우리들공원", "address": "대전광역시 중구 중앙로138번길 30", "image": "", "lat": 36.3274661918, "lng": 127.4254733664}, {"id": "2605899", "title": "유성 족욕체험장", "address": "대전광역시 유성구 봉명동", "image": "http://tong.visitkorea.or.kr/cms/resource/22/3350822_image2_1.jpg", "lat": 36.3550449502, "lng": 127.3454325546}, {"id": "1623708", "title": "평송청소년문화센터", "address": "대전광역시 서구 둔산대로 201", "image": "http://tong.visitkorea.or.kr/cms/resource/09/3344609_image2_1.jpg", "lat": 36.3659028647, "lng": 127.3918669952}, {"id": "2732216", "title": "상보안 유원지", "address": "대전광역시 서구 흑석동 738", "image": "http://tong.visitkorea.or.kr/cms/resource/95/3346995_image2_1.jpg", "lat": 36.2767094214, "lng": 127.3429904464}, {"id": "2786012", "title": "노고산", "address": "대전광역시 동구 직동 산31-1", "image": "http://tong.visitkorea.or.kr/cms/resource/60/3346960_image2_1.jpg", "lat": 36.4241507101, "lng": 127.4891622601}, {"id": "2661814", "title": "만인산 자연휴양림", "address": "대전광역시 동구 산내로 106", "image": "http://tong.visitkorea.or.kr/cms/resource/87/3350787_image2_1.jpg", "lat": 36.2022976798, "lng": 127.4547630291}, {"id": "126846", "title": "대청호", "address": "대전광역시 동구", "image": "http://tong.visitkorea.or.kr/cms/resource/66/3303866_image2_1.jpg", "lat": 36.4011148323, "lng": 127.5101665667}, {"id": "2790930", "title": "금강로하스 대청공원 (암석식물원)", "address": "대전광역시 대덕구 미호동", "image": "http://tong.visitkorea.or.kr/cms/resource/06/3336206_image2_1.jpg", "lat": 36.4714477773, "lng": 127.4726180019}, {"id": "2673993", "title": "비래사", "address": "대전광역시 대덕구 비래골길 47-74", "image": "http://tong.visitkorea.or.kr/cms/resource/54/3344254_image2_1.jpg", "lat": 36.3731086461, "lng": 127.4508892981}, {"id": "2674960", "title": "유림공원", "address": "대전광역시 유성구 어은로 27", "image": "http://tong.visitkorea.or.kr/cms/resource/57/2674957_image2_1.jpg", "lat": 36.3607306283, "lng": 127.3577063021}, {"id": "3454381", "title": "디즈니스토어 현대프리미엄아울렛 대전점", "address": "대전광역시 유성구 테크노중앙로 123 (용산동)", "image": "http://tong.visitkorea.or.kr/cms/resource/82/3453482_image2_1.jpg", "lat": 36.4234825045, "lng": 127.3985342768}, {"id": "3112042", "title": "테미근린공원", "address": "대전광역시 중구 보문로199번길 37-36", "image": "", "lat": 36.3192226254, "lng": 127.4218489142}, {"id": "1114311", "title": "천마산", "address": "충청남도 계룡시 금암동", "image": "", "lat": 36.2648397228504, "lng": 127.242071040567}, {"id": "1114077", "title": "계룡산신도내주초석석재", "address": "충청남도 계룡시 신도안면 부남리", "image": "http://tong.visitkorea.or.kr/cms/resource/10/3338510_image2_1.JPG", "lat": 36.3159389899, "lng": 127.2264886977}, {"id": "1114200", "title": "염선재", "address": "충청남도 계룡시 사계로1길 16 (금암동)", "image": "http://tong.visitkorea.or.kr/cms/resource/73/3550573_image2_1.jpg", "lat": 36.2693727159, "lng": 127.2617895695}, {"id": "1114207", "title": "두마신원재", "address": "충청남도 계룡시 두마면 왕대2길 43", "image": "http://tong.visitkorea.or.kr/cms/resource/98/3550598_image2_1.jpg", "lat": 36.2552883691, "lng": 127.2705641639}, {"id": "1937772", "title": "계룡 사계고택", "address": "충청남도 계룡시 두마면 사계로 122-4", "image": "http://tong.visitkorea.or.kr/cms/resource/51/3333951_image2_1.jpg", "lat": 36.2655816518, "lng": 127.271408256}, {"id": "128874", "title": "무상사(계룡)", "address": "충청남도 계룡시 엄사면 향적산길 129", "image": "http://tong.visitkorea.or.kr/cms/resource/06/3057306_image2_1.JPG", "lat": 36.2917581729, "lng": 127.2123128391}, {"id": "1937770", "title": "무궁화학습원", "address": "충청남도 계룡시 신도안면 남선리", "image": "http://tong.visitkorea.or.kr/cms/resource/77/3060477_image2_1.JPG", "lat": 36.3254326813, "lng": 127.245414527}, {"id": "1114250", "title": "모원재", "address": "충청남도 계룡시 두마면 왕대2길 6-10", "image": "http://tong.visitkorea.or.kr/cms/resource/76/3338176_image2_1.jpg", "lat": 36.2548773527, "lng": 127.273266711}, {"id": "2654766", "title": "계룡 입암저수지", "address": "충청남도 계룡시 두마면 입암리", "image": "http://tong.visitkorea.or.kr/cms/resource/12/2675812_image2_1.jpg", "lat": 36.2417451867, "lng": 127.2543159801}, {"id": "3038694", "title": "이인 벽화마을", "address": "충청남도 공주시 이인면 은행안길 19-8", "image": "https://tong.visitkorea.or.kr/cms/resource/58/4081258_image2_1.JPG", "lat": 36.3623630667, "lng": 127.0637792963}, {"id": "125949", "title": "공주 공산성 [유네스코 세계유산]", "address": "충청남도 공주시 웅진로 280", "image": "https://tong.visitkorea.or.kr/cms/resource_photo/41/3404541_image2_1.jpg", "lat": 36.4629499677, "lng": 127.1267906104}, {"id": "2736822", "title": "유구색동수국정원", "address": "충청남도 공주시 유구읍 유구리", "image": "https://tong.visitkorea.or.kr/cms/resource/41/4079141_image2_1.jpg", "lat": 36.5555, "lng": 126.9544}, {"id": "127237", "title": "공주 석장리 유적", "address": "충청남도 공주시 금벽로 990 (석장리동)", "image": "https://tong.visitkorea.or.kr/cms/resource/91/3390291_image2_1.JPG", "lat": 36.446888, "lng": 127.189655}, {"id": "125893", "title": "동학사(공주)", "address": "충청남도 공주시 반포면 동학사1로 462", "image": "https://tong.visitkorea.or.kr/cms/resource/71/3590671_image2_1.jpg", "lat": 36.3532287122659, "lng": 127.22004019899}, {"id": "125833", "title": "갑사계곡", "address": "충청남도 공주시 계룡면 갑사로 225", "image": "https://tong.visitkorea.or.kr/cms/resource/66/3057366_image2_1.JPG", "lat": 36.3691316836234, "lng": 127.18219339648}, {"id": "126725", "title": "계룡산 도자예술촌", "address": "충청남도 공주시 반포면 도예촌길 71-25", "image": "https://tong.visitkorea.or.kr/cms/resource/79/3534879_image2_1.jpg", "lat": 36.39000604859124, "lng": 127.2152329818195}, {"id": "3036469", "title": "중장리농촌체험휴양마을", "address": "충청남도 공주시 계룡면 갑사로 307", "image": "https://tong.visitkorea.or.kr/cms/resource/66/3036466_image2_1.jpg", "lat": 36.368599, "lng": 127.165065}, {"id": "3038643", "title": "석장리 계절별 꽃단지", "address": "충청남도 공주시 석장리동", "image": "https://tong.visitkorea.or.kr/cms/resource/38/3038638_image2_1.JPG", "lat": 36.444395, "lng": 127.194568}, {"id": "3038621", "title": "말재 농원", "address": "충청남도 공주시 반포면 마티고개로 209", "image": "https://tong.visitkorea.or.kr/cms/resource/73/3038573_image2_1.jpg", "lat": 36.41095312489959, "lng": 127.22378714566642}, {"id": "3038487", "title": "공산성 쌍수정", "address": "충청남도 공주시 금성동", "image": "https://tong.visitkorea.or.kr/cms/resource/85/3038485_image2_1.JPG", "lat": 36.462237, "lng": 127.125634}, {"id": "3038480", "title": "공산성 광복루", "address": "충청남도 공주시 금성동", "image": "https://tong.visitkorea.or.kr/cms/resource/74/3038474_image2_1.JPG", "lat": 36.460302, "lng": 127.129498}, {"id": "3038733", "title": "아이러브팜핑", "address": "충청남도 공주시 정안면 풍정길 47-2", "image": "https://tong.visitkorea.or.kr/cms/resource/74/3002074_image2_1.jpg", "lat": 36.64003690411396, "lng": 127.11657966261896}, {"id": "3546044", "title": "공암마을", "address": "충청남도 공주시 반포면 연정길 17-9", "image": "https://tong.visitkorea.or.kr/cms/resource/64/3543764_image2_1.jpg", "lat": 36.399253984440726, "lng": 127.24984425850992}, {"id": "3545335", "title": "고마열차", "address": "충청남도 공주시 금성동", "image": "https://tong.visitkorea.or.kr/cms/resource/73/3543973_image2_1.jpg", "lat": 36.4634, "lng": 127.126}, {"id": "3371784", "title": "하림펫푸드 해피댄스스튜디오", "address": "충청남도 공주시 정안면 정안농공단지길 32-111", "image": "", "lat": 36.621515627659875, "lng": 127.12998602881542}, {"id": "125817", "title": "계룡산국립공원", "address": "충청남도 공주시 반포면 동학사1로 327-6", "image": "https://tong.visitkorea.or.kr/cms/resource/73/3509273_image2_1.jpg", "lat": 36.3568257226531, "lng": 127.232444467616}, {"id": "2784730", "title": "유구벽화거리", "address": "충청남도 공주시 유구읍 시장길 34-5", "image": "", "lat": 36.553479, "lng": 126.952393}, {"id": "2732468", "title": "미르섬", "address": "충청남도 공주시 금벽로 368 (신관동)", "image": "https://tong.visitkorea.or.kr/cms/resource/57/3495357_image2_1.jpg", "lat": 36.47024551977537, "lng": 127.12753885566673}, {"id": "231954", "title": "공주 반죽동당간지주", "address": "충청남도 공주시 제민1길 15", "image": "", "lat": 36.4516484761881, "lng": 127.122602431058}, {"id": "2407328", "title": "정안천생태공원", "address": "충청남도 공주시 의당면 의당로 257", "image": "", "lat": 36.49446124076723, "lng": 127.13615007867759}, {"id": "2736665", "title": "유구천핑크뮬리", "address": "충청남도 공주시 유구읍 유구리", "image": "https://tong.visitkorea.or.kr/cms/resource/78/2736778_image2_1.jpg", "lat": 36.5498, "lng": 126.9563}, {"id": "129574", "title": "영은사(공주)", "address": "충청남도 공주시 공산성길 59-22", "image": "https://tong.visitkorea.or.kr/cms/resource/38/3338538_image2_1.JPG", "lat": 36.4631527463514, "lng": 127.128215468001}, {"id": "127238", "title": "수리치골 성지", "address": "충청남도 공주시 신풍면 용수봉갑길 544", "image": "https://tong.visitkorea.or.kr/cms/resource/82/3060482_image2_1.JPG", "lat": 36.5199668088634, "lng": 126.89654454315}, {"id": "2751166", "title": "나태주 골목길", "address": "충청남도 공주시 대통1길 56-7", "image": "https://tong.visitkorea.or.kr/cms/resource/20/3353720_image2_1.JPG", "lat": 36.4537315640732, "lng": 127.122902345639}, {"id": "2524982", "title": "공주 산림휴양마을", "address": "충청남도 공주시 수원지공원길 222", "image": "", "lat": 36.4243628130584, "lng": 127.119306266324}, {"id": "433027", "title": "이안숲속", "address": "충청남도 공주시 반포면 수목원길 25", "image": "https://tong.visitkorea.or.kr/cms/resource/07/3057407_image2_1.jpg", "lat": 36.4226533308719, "lng": 127.19946528445}, {"id": "128113", "title": "공주 우금치 전적", "address": "충청남도 공주시 금학동", "image": "http://tong.visitkorea.or.kr/cms/resource/21/3334021_image2_1.jpg", "lat": 37.0000500157, "lng": 127.1119164418}, {"id": "125894", "title": "마곡사 [유네스코 세계유산]", "address": "충청남도 공주시 사곡면 마곡사로 966", "image": "", "lat": 36.5574519713, "lng": 127.0116153568}, {"id": "126681", "title": "공주 무령왕릉과 왕릉원[유네스코 세계유산]", "address": "충청남도 공주시 왕릉로 37 (웅진동)", "image": "", "lat": 36.4605731945, "lng": 127.1125227942}, {"id": "129557", "title": "공주 갑사 철당간", "address": "충청남도 공주시 계룡면 중장리", "image": "http://tong.visitkorea.or.kr/cms/resource/99/3560499_image2_1.jpg", "lat": 36.3647465688, "lng": 127.1854160623}, {"id": "1170335", "title": "연미산 자연미술공원", "address": "충청남도 공주시 우성면 연미산고개길 98", "image": "http://tong.visitkorea.or.kr/cms/resource/41/2962141_image2_1.jpg", "lat": 36.4736048592, "lng": 127.1026205539}, {"id": "2035859", "title": "공주 고마나루", "address": "충청남도 공주시 백제큰길 2045 (웅진동)", "image": "http://tong.visitkorea.or.kr/cms/resource/38/3534838_image2_1.jpg", "lat": 36.4687082638, "lng": 127.1063453516}, {"id": "125889", "title": "신원사", "address": "충청남도 공주시 계룡면 신원사동길 1", "image": "http://tong.visitkorea.or.kr/cms/resource/72/3550972_image2_1.jpg", "lat": 36.3355165551, "lng": 127.1839253154}, {"id": "129345", "title": "공주 원골마을", "address": "충청남도 공주시 신풍면 원골예술길 89", "image": "http://tong.visitkorea.or.kr/cms/resource/85/3534885_image2_1.jpg", "lat": 36.5276461638, "lng": 126.9604874236}, {"id": "131053", "title": "양화저수지", "address": "충청남도 공주시 계룡면 양화리", "image": "http://tong.visitkorea.or.kr/cms/resource/49/3534749_image2_1.jpg", "lat": 36.3280448346, "lng": 127.1638162056}, {"id": "2738732", "title": "한천저수지", "address": "충청남도 공주시 우성면 한천리", "image": "http://tong.visitkorea.or.kr/cms/resource/64/3534764_image2_1.jpg", "lat": 36.5199464907, "lng": 127.0870151488}, {"id": "2753914", "title": "기산저수지(공주)", "address": "충청남도 공주시 계룡면 기산리", "image": "http://tong.visitkorea.or.kr/cms/resource/41/3534741_image2_1.jpg", "lat": 36.3831463229, "lng": 127.1333146806}, {"id": "2756160", "title": "곰나루국민관광단지", "address": "충청남도 공주시 백제큰길 2110-16 (웅진동)", "image": "http://tong.visitkorea.or.kr/cms/resource/26/3534726_image2_1.jpg", "lat": 36.4702692908, "lng": 127.1117170502}, {"id": "2827450", "title": "소랭이마을", "address": "충청남도 공주시 정안면 정안마곡사로 396", "image": "http://tong.visitkorea.or.kr/cms/resource/21/3534721_image2_1.jpg", "lat": 36.6275535183, "lng": 127.0835847656}, {"id": "2613459", "title": "공주 중학동 구 선교사 가옥", "address": "충청남도 공주시 쪽지골길 18-13", "image": "http://tong.visitkorea.or.kr/cms/resource/13/3536313_image2_1.jpg", "lat": 36.449491377, "lng": 127.1264579543}, {"id": "125891", "title": "갑사", "address": "충청남도 공주시 계룡면 갑사로 567-3", "image": "http://tong.visitkorea.or.kr/cms/resource/19/3533519_image2_1.jpg", "lat": 36.3650187978, "lng": 127.1875769727}, {"id": "127239", "title": "공주 계룡산 중악단", "address": "충청남도 공주시 계룡면 신원사동길 1", "image": "", "lat": 36.3355276659, "lng": 127.1839669782}, {"id": "125832", "title": "은선폭포", "address": "충청남도 공주시 반포면 동학사1로 327-6", "image": "http://tong.visitkorea.or.kr/cms/resource/60/3468860_image2_1.jpg", "lat": 36.3566372174, "lng": 127.2325981663}, {"id": "2750146", "title": "제민천", "address": "충청남도 공주시 무령로 201 (교동)", "image": "http://tong.visitkorea.or.kr/cms/resource/23/3303923_image2_1.JPG", "lat": 36.4567293641, "lng": 127.1223636816}, {"id": "2770295", "title": "금학생태공원", "address": "충청남도 공주시 수원지공원길 74 (금학동)", "image": "http://tong.visitkorea.or.kr/cms/resource/81/2771981_image2_1.jpg", "lat": 36.4339097854, "lng": 127.1239113799}, {"id": "2916020", "title": "공산성연지", "address": "충청남도 공주시 금성동", "image": "http://tong.visitkorea.or.kr/cms/resource/15/2916015_image2_1.jpg", "lat": 36.4639480871, "lng": 127.1284157218}, {"id": "127850", "title": "금강온천", "address": "충청남도 공주시 고마나루길 51-12", "image": "http://tong.visitkorea.or.kr/cms/resource/34/3057334_image2_1.JPG", "lat": 36.4627950745, "lng": 127.107523183}, {"id": "3038456", "title": "불장골 저수지", "address": "충청남도 공주시 반포면 송곡리", "image": "http://tong.visitkorea.or.kr/cms/resource/50/3038450_image2_1.JPG", "lat": 36.3981358111, "lng": 127.2647163914}, {"id": "3038543", "title": "공주 환경성 건강 센터", "address": "충청남도 공주시 수원지공원길 131-21 (금학동)", "image": "http://tong.visitkorea.or.kr/cms/resource/36/3038536_image2_1.jpg", "lat": 36.4304352185, "lng": 127.1259251817}, {"id": "2736733", "title": "공주시 안전체험공원", "address": "충청남도 공주시 월미동길 219 (월미동)", "image": "http://tong.visitkorea.or.kr/cms/resource/15/2737215_image2_1.jpg", "lat": 36.4945079541, "lng": 127.0990314234}, {"id": "1956390", "title": "용문서원", "address": "충청남도 공주시 중동골길 54-12", "image": "http://tong.visitkorea.or.kr/cms/resource/35/3337935_image2_1.jpg", "lat": 36.4430734285, "lng": 127.1696348098}, {"id": "2613461", "title": "공주 중동성당", "address": "충청남도 공주시 성당길 6", "image": "http://tong.visitkorea.or.kr/cms/resource/04/3338804_image2_1.jpg", "lat": 36.4551824131, "lng": 127.1277076887}, {"id": "2551130", "title": "학림사(공주)", "address": "충청남도 공주시 반포면 제석골길 67", "image": "http://tong.visitkorea.or.kr/cms/resource/30/3338530_image2_1.JPG", "lat": 36.3649865241, "lng": 127.2474466119}, {"id": "1954463", "title": "공주향교", "address": "충청남도 공주시 향교1길 26", "image": "http://tong.visitkorea.or.kr/cms/resource/53/3355653_image2_1.jpg", "lat": 36.4583568588, "lng": 127.1168863516}, {"id": "1938262", "title": "계룡산상신농촌체험휴양마을", "address": "충청남도 공주시 반포면 상하신길 396", "image": "http://tong.visitkorea.or.kr/cms/resource/63/3355563_image2_1.jpg", "lat": 36.3847448812, "lng": 127.21959024}, {"id": "126990", "title": "공주상신리 당간지주", "address": "충청남도 공주시 반포면", "image": "http://tong.visitkorea.or.kr/cms/resource/21/3355621_image2_1.jpg", "lat": 36.3844532202, "lng": 127.2180070562}, {"id": "126546", "title": "성공사", "address": "충청남도 공주시 우성면 성곡길 371", "image": "http://tong.visitkorea.or.kr/cms/resource/22/3338722_image2_1.jpg", "lat": 36.5073226694, "lng": 127.0716696457}, {"id": "129571", "title": "명국삼장비", "address": "충청남도 공주시 금성동", "image": "http://tong.visitkorea.or.kr/cms/resource/85/3338785_image2_1.jpg", "lat": 36.4610456583, "lng": 127.1293157188}, {"id": "129558", "title": "동학사계곡", "address": "충청남도 공주시 반포면 학봉리", "image": "http://tong.visitkorea.or.kr/cms/resource/14/3338114_image2_1.jpg", "lat": 36.3529457673, "lng": 127.2209159783}, {"id": "129572", "title": "쌍수정사적비", "address": "충청남도 공주시 금성동", "image": "http://tong.visitkorea.or.kr/cms/resource/81/3338381_image2_1.jpg", "lat": 36.4622454578, "lng": 127.1257160097}, {"id": "129575", "title": "웅비탑", "address": "충청남도 공주시 백제큰길 2104", "image": "http://tong.visitkorea.or.kr/cms/resource/77/3338777_image2_1.jpg", "lat": 36.4707858821, "lng": 127.1108032291}, {"id": "231955", "title": "공주서혈사지", "address": "충청남도 공주시 시어골2길 96-44 (웅진동)", "image": "http://tong.visitkorea.or.kr/cms/resource/66/3337966_image2_1.jpg", "lat": 36.4434028916, "lng": 127.1097151753}, {"id": "250297", "title": "숙모전", "address": "충청남도 공주시 반포면 동학사1로 462", "image": "http://tong.visitkorea.or.kr/cms/resource/93/3337993_image2_1.jpg", "lat": 36.3539511573, "lng": 127.2180550965}, {"id": "304692", "title": "동혈사", "address": "충청남도 공주시 의당면 동혈사길 77", "image": "http://tong.visitkorea.or.kr/cms/resource/49/3338349_image2_1.jpg", "lat": 36.555182623, "lng": 127.1600270815}, {"id": "1626449", "title": "충현서원", "address": "충청남도 공주시 반포면 공암장터길 28-6", "image": "http://tong.visitkorea.or.kr/cms/resource/77/3334277_image2_1.jpg", "lat": 36.397921682, "lng": 127.249745516}, {"id": "1956304", "title": "고로서원", "address": "충청남도 공주시 사곡면 능계길 60-67", "image": "http://tong.visitkorea.or.kr/cms/resource/00/3334100_image2_1.jpg", "lat": 36.5109630539, "lng": 127.0224573019}, {"id": "1956330", "title": "명탄서원", "address": "충청남도 공주시 명탄서원길 48", "image": "", "lat": 36.458854718, "lng": 127.1562855811}, {"id": "2756156", "title": "금강신관공원", "address": "충청남도 공주시 금벽로 368 (신관동)", "image": "", "lat": 36.4702917892, "lng": 127.1275545162}, {"id": "250257", "title": "공주 정지산 유적", "address": "충청남도 공주시 금성동", "image": "http://tong.visitkorea.or.kr/cms/resource/79/2734979_image2_1.jpg", "lat": 36.4695139254, "lng": 127.1175998755}, {"id": "2755172", "title": "청벽산", "address": "충청남도 공주시 반포면 마암리 산 4-4", "image": "", "lat": 36.4285676628, "lng": 127.2209361575}, {"id": "126849", "title": "마곡사 천연송림욕장", "address": "충청남도 공주시 사곡면 마곡사로", "image": "http://tong.visitkorea.or.kr/cms/resource/40/3390240_image2_1.JPG", "lat": 36.559043468, "lng": 127.0123513592}, {"id": "2736857", "title": "메타세콰이어길", "address": "충청남도 공주시 의당면 청룡리", "image": "http://tong.visitkorea.or.kr/cms/resource/77/2737177_image2_1.jpg", "lat": 36.4931476363, "lng": 127.135214323}, {"id": "128115", "title": "선화당(공주)", "address": "충청남도 공주시 웅진동", "image": "http://tong.visitkorea.or.kr/cms/resource/25/3396425_image2_1.JPG", "lat": 36.4660475194, "lng": 127.1098145563}, {"id": "127240", "title": "공주 황새바위 순교성지", "address": "충청남도 공주시 왕릉로 118 (금성동)", "image": "http://tong.visitkorea.or.kr/cms/resource/84/3390284_image2_1.JPG", "lat": 36.4639646057, "lng": 127.1200886904}, {"id": "2613456", "title": "금강아트센터", "address": "충청남도 공주시 반포면 왕흥장악로 837", "image": "http://tong.visitkorea.or.kr/cms/resource/73/3396473_image2_1.JPG", "lat": 36.4289311787, "lng": 127.2021461657}, {"id": "1859903", "title": "공주치즈스쿨", "address": "충청남도 공주시 신풍면 심방울2길 37-4", "image": "http://tong.visitkorea.or.kr/cms/resource/10/3393410_image2_1.JPG", "lat": 36.5198051423, "lng": 126.9459000567}, {"id": "2736734", "title": "동월계곡", "address": "충청남도 공주시 반포면 동월1길 238", "image": "http://tong.visitkorea.or.kr/cms/resource/72/2737172_image2_1.jpg", "lat": 36.3376065453, "lng": 127.2599767835}, {"id": "2714510", "title": "논산 탑정호 출렁다리", "address": "충청남도 논산시 부적면 신풍리", "image": "https://tong.visitkorea.or.kr/cms/resource/20/3339320_image2_1.jpg", "lat": 36.1817, "lng": 127.1589}, {"id": "125974", "title": "돈암서원 [유네스코 세계유산]", "address": "충청남도 논산시 연산면 임3길 26-14", "image": "https://tong.visitkorea.or.kr/cms/resource/01/3588401_image2_1.JPG", "lat": 36.2090049719929, "lng": 127.180722714004}, {"id": "2594478", "title": "논산 선샤인스튜디오", "address": "충청남도 논산시 연무읍 봉황로 90", "image": "https://tong.visitkorea.or.kr/cms/resource/54/3542554_image2_1.jpg", "lat": 36.1028, "lng": 127.1051}, {"id": "3033516", "title": "논산한옥마을", "address": "충청남도 논산시 연산면 임3길 2", "image": "https://tong.visitkorea.or.kr/cms/resource/94/3033494_image2_1.JPG", "lat": 36.21144453816719, "lng": 127.18124112282463}, {"id": "3036579", "title": "덕바위농촌체험휴양마을", "address": "충청남도 논산시 연산면 선비로604번길 46-20", "image": "https://tong.visitkorea.or.kr/cms/resource/76/3036576_image2_1.JPG", "lat": 36.237419471823586, "lng": 127.18454322074571}, {"id": "3036593", "title": "딸기향농촌테마공원", "address": "충청남도 논산시 부적면 부적로 665", "image": "https://tong.visitkorea.or.kr/cms/resource/83/3036583_image2_1.JPG", "lat": 36.19025125103216, "lng": 127.16849568341455}, {"id": "3520065", "title": "논산 충헌사", "address": "충청남도 논산시 상월면 주곡1길 16", "image": "https://tong.visitkorea.or.kr/cms/resource/63/3520063_image2_1.JPG", "lat": 36.278738667480376, "lng": 127.15409305463}, {"id": "3545523", "title": "또로롱딸기", "address": "충청남도 논산시 성동면 논산평야로436번길 91", "image": "https://tong.visitkorea.or.kr/cms/resource/83/3543783_image2_1.jpg", "lat": 36.212338422570745, "lng": 127.06165820070653}, {"id": "3468684", "title": "양촌 와이너리", "address": "충청남도 논산시 양촌면 황산벌로 1075-21", "image": "https://tong.visitkorea.or.kr/cms/resource/65/3577065_image2_1.jpg", "lat": 36.177914714333006, "lng": 127.20117864587323}, {"id": "1626532", "title": "충곡서원", "address": "충청남도 논산시 부적면 충곡리", "image": "https://tong.visitkorea.or.kr/cms/resource/04/3493204_image2_1.jpg", "lat": 36.1986, "lng": 127.1771}, {"id": "1626999", "title": "논산 노성산성", "address": "충청남도 논산시 노성면 송당리", "image": "https://tong.visitkorea.or.kr/cms/resource/42/1600242_image2_1.jpg", "lat": 36.294312, "lng": 127.124799}, {"id": "2782485", "title": "종학당", "address": "충청남도 논산시 노성면 종학길 35", "image": "https://tong.visitkorea.or.kr/cms/resource/73/4016973_image2_1.jpg", "lat": 36.2904368577102, "lng": 127.097000915491}, {"id": "125816", "title": "수락계곡", "address": "충청남도 논산시 벌곡면", "image": "https://tong.visitkorea.or.kr/cms/resource/03/3046003_image2_1.JPG", "lat": 36.1430554309623, "lng": 127.30382398061}, {"id": "128002", "title": "대둔산도립공원(논산)", "address": "충청남도 논산시 벌곡면 수락리", "image": "", "lat": 36.1419, "lng": 127.3021}, {"id": "525648", "title": "계백장군 유적지", "address": "충청남도 논산시 부적면 충곡로 311-54", "image": "http://tong.visitkorea.or.kr/cms/resource/78/3577178_image2_1.jpg", "lat": 36.1924523165, "lng": 127.1814127047}, {"id": "231931", "title": "논산명재고택", "address": "충청남도 논산시 노성면 노성산성길 50", "image": "http://tong.visitkorea.or.kr/cms/resource/01/3577201_image2_1.jpg", "lat": 36.2819800939, "lng": 127.1314897789}, {"id": "128335", "title": "도정딸기마을", "address": "충청남도 논산시 양촌면 황산벌로380번길 15", "image": "http://tong.visitkorea.or.kr/cms/resource/18/3577218_image2_1.jpg", "lat": 36.134537804, "lng": 127.2438531159}, {"id": "2827405", "title": "둥구리 농촌체험휴양마을", "address": "충청남도 논산시 중산길 35", "image": "http://tong.visitkorea.or.kr/cms/resource/14/3577214_image2_1.jpg", "lat": 36.1199526605, "lng": 127.2040653909}, {"id": "1626991", "title": "노성궐리사", "address": "충청남도 논산시 노성면 교촌길 35", "image": "http://tong.visitkorea.or.kr/cms/resource/76/3577176_image2_1.jpg", "lat": 36.2825300589, "lng": 127.1330923985}, {"id": "2650372", "title": "강경근대거리", "address": "충청남도 논산시 강경읍 옥녀봉로 30-5", "image": "http://tong.visitkorea.or.kr/cms/resource/63/3577163_image2_1.jpg", "lat": 36.161772411, "lng": 127.0178753661}, {"id": "1182200", "title": "강경 옥녀봉", "address": "충청남도 논산시 강경읍 북옥리", "image": "http://tong.visitkorea.or.kr/cms/resource/46/3577146_image2_1.jpg", "lat": 36.1649080602, "lng": 127.0119397028}, {"id": "802186", "title": "논산 황산벌참살이마을", "address": "충청남도 논산시 연산면 신양길 167-10", "image": "http://tong.visitkorea.or.kr/cms/resource/31/3577131_image2_1.jpg", "lat": 36.1931114002, "lng": 127.2284473723}, {"id": "946272", "title": "구 강경성결교회 예배당", "address": "충청남도 논산시 강경읍 계백로219번길 40-1", "image": "http://tong.visitkorea.or.kr/cms/resource/27/3577127_image2_1.jpg", "lat": 36.1627889719, "lng": 127.0185058382}, {"id": "1627011", "title": "강경미내다리", "address": "충청남도 논산시 채운면 삼거리", "image": "http://tong.visitkorea.or.kr/cms/resource/16/3577116_image2_1.jpg", "lat": 36.152857008, "lng": 127.031949343}, {"id": "1626500", "title": "노성향교", "address": "충청남도 논산시 노성면 노성산성길 54", "image": "http://tong.visitkorea.or.kr/cms/resource/11/3577111_image2_1.jpg", "lat": 36.2821939432, "lng": 127.1306204062}, {"id": "2770363", "title": "병암유원지", "address": "충청남도 논산시 가야곡면 병암리", "image": "http://tong.visitkorea.or.kr/cms/resource/04/3577104_image2_1.jpg", "lat": 36.1702440953, "lng": 127.2015170562}, {"id": "2770311", "title": "논산 시민가족공원", "address": "충청남도 논산시 관촉동", "image": "http://tong.visitkorea.or.kr/cms/resource/92/3577092_image2_1.jpg", "lat": 36.1946451717, "lng": 127.1049167081}, {"id": "2752549", "title": "반야사(논산)", "address": "충청남도 논산시 가야곡면 삼전길 104", "image": "http://tong.visitkorea.or.kr/cms/resource/84/3577084_image2_1.jpg", "lat": 36.11030044, "lng": 127.172951759}, {"id": "2752308", "title": "온빛자연휴양림", "address": "충청남도 논산시 벌곡면 황룡재로 480-113", "image": "http://tong.visitkorea.or.kr/cms/resource/70/3577070_image2_1.jpg", "lat": 36.2028634872, "lng": 127.2525505133}, {"id": "2719582", "title": "탑정호 수변생태공원", "address": "충청남도 논산시 부적면 부적로 721-10", "image": "http://tong.visitkorea.or.kr/cms/resource/59/3577059_image2_1.jpg", "lat": 36.191293965, "lng": 127.1727996164}, {"id": "3082347", "title": "강경구락부", "address": "충청남도 논산시 강경읍 계백로167번길 46-11", "image": "http://tong.visitkorea.or.kr/cms/resource/34/3581734_image2_1.jpg", "lat": 36.1618473607, "lng": 127.0155005764}, {"id": "2606192", "title": "선샤인랜드", "address": "충청남도 논산시 연무읍 봉황로 102", "image": "http://tong.visitkorea.or.kr/cms/resource/86/3534786_image2_1.jpg", "lat": 36.1019974411, "lng": 127.1060135135}, {"id": "125905", "title": "관촉사(논산)", "address": "충청남도 논산시 관촉로1번길 25", "image": "http://tong.visitkorea.or.kr/cms/resource/30/3533430_image2_1.jpg", "lat": 36.1888348777, "lng": 127.1136855228}, {"id": "125904", "title": "쌍계사(논산)", "address": "충청남도 논산시 양촌면 중산길 192", "image": "http://tong.visitkorea.or.kr/cms/resource/57/3050157_image2_1.JPG", "lat": 36.105459901, "lng": 127.20581562}, {"id": "125899", "title": "개태사(논산)", "address": "충청남도 논산시 연산면 계백로 2614-11", "image": "http://tong.visitkorea.or.kr/cms/resource/77/3050177_image2_1.JPG", "lat": 36.2407281973, "lng": 127.2293710155}, {"id": "946844", "title": "강경역사관", "address": "충청남도 논산시 강경읍 계백로167번길 50", "image": "", "lat": 36.1620834404, "lng": 127.0152089296}, {"id": "1954698", "title": "은진향교", "address": "충청남도 논산시 은진면 탑정로427번길 14-1", "image": "http://tong.visitkorea.or.kr/cms/resource/49/3498849_image2_1.jpg", "lat": 36.1709896671, "lng": 127.1120972512}, {"id": "1626523", "title": "탑정저수지", "address": "충청남도 논산시 부적면 신풍리", "image": "http://tong.visitkorea.or.kr/cms/resource/42/3050142_image2_1.JPG", "lat": 36.17875094, "lng": 127.17201391}, {"id": "880738", "title": "논산 딸기삼촌농장", "address": "충청남도 논산시 노성면 명재로 222-17", "image": "http://tong.visitkorea.or.kr/cms/resource/54/2372154_image2_1.bmp", "lat": 36.2716167254, "lng": 127.0935017899}, {"id": "2770339", "title": "챌린지팜", "address": "충청남도 논산시 신화길 81-22", "image": "http://tong.visitkorea.or.kr/cms/resource/00/2772100_image2_1.jpg", "lat": 36.1285911643, "lng": 127.0795012897}, {"id": "1182337", "title": "죽림서원", "address": "충청남도 논산시 금백로 20-8", "image": "http://tong.visitkorea.or.kr/cms/resource/93/3334793_image2_1.jpg", "lat": 36.1549535995, "lng": 127.0094651874}, {"id": "1626487", "title": "팔괘정", "address": "충청남도 논산시 강경읍 황산리", "image": "http://tong.visitkorea.or.kr/cms/resource/74/3339274_image2_1.jpg", "lat": 36.1561451326, "lng": 127.0096151428}, {"id": "1626544", "title": "연산향교 대성전", "address": "충청남도 논산시 연산면 관동1길 88-12", "image": "http://tong.visitkorea.or.kr/cms/resource/90/3339390_image2_1.jpg", "lat": 36.2235798146, "lng": 127.209878773}, {"id": "1626554", "title": "은진향교 대성전", "address": "충청남도 논산시 은진면 탑정로427번길 14-1", "image": "http://tong.visitkorea.or.kr/cms/resource/16/3334816_image2_1.jpg", "lat": 36.1709896671, "lng": 127.1120972512}, {"id": "1956423", "title": "행림서원", "address": "충청남도 논산시 가야곡면 육곡길 27-1", "image": "http://tong.visitkorea.or.kr/cms/resource/83/3334783_image2_1.jpg", "lat": 36.1345058081, "lng": 127.1614021474}, {"id": "946216", "title": "강경 구 연수당 건재 약방", "address": "충청남도 논산시 강경읍 옥녀봉로24번길 12-1", "image": "http://tong.visitkorea.or.kr/cms/resource/52/3339052_image2_1.jpg", "lat": 36.162022392, "lng": 127.0184336426}, {"id": "946451", "title": "강경 중앙초등학교 강당", "address": "충청남도 논산시 강경읍 옥녀봉로 8", "image": "http://tong.visitkorea.or.kr/cms/resource/69/3339069_image2_1.jpg", "lat": 36.1602309428, "lng": 127.0191725131}, {"id": "946712", "title": "강경역사문화안내소(구 강경노동조합)", "address": "충청남도 논산시 강경읍 옥녀봉로27번길 30-5", "image": "http://tong.visitkorea.or.kr/cms/resource/43/3339243_image2_1.jpg", "lat": 36.1610252177, "lng": 127.0146367865}, {"id": "946885", "title": "논산 연산역 급수탑", "address": "충청남도 논산시 연산면 선비로275번길 31-2", "image": "http://tong.visitkorea.or.kr/cms/resource/28/3339228_image2_1.jpg", "lat": 36.2124170413, "lng": 127.2007521095}, {"id": "1627027", "title": "전견훤묘(견훤왕릉)", "address": "충청남도 논산시 연무읍 금곡리", "image": "http://tong.visitkorea.or.kr/cms/resource/29/3339329_image2_1.jpg", "lat": 36.1192450825, "lng": 127.0837150492}, {"id": "2750930", "title": "양촌자연휴양림", "address": "충청남도 논산시 양촌면 매죽헌로1723번길 176-23", "image": "", "lat": 36.1572796992, "lng": 127.2465217151}, {"id": "1954679", "title": "연산향교", "address": "충청남도 논산시 연산면 관동1길 88-12", "image": "http://tong.visitkorea.or.kr/cms/resource/13/3339113_image2_1.jpg", "lat": 36.2236881339, "lng": 127.2097815559}, {"id": "1956306", "title": "금곡서원", "address": "충청남도 논산시 연무읍 왕릉로 170-35", "image": "http://tong.visitkorea.or.kr/cms/resource/26/3356026_image2_1.jpg", "lat": 36.1181229996, "lng": 127.0843677982}, {"id": "946549", "title": "구 강경공립상업고등학교 관사", "address": "충청남도 논산시 강경읍 계백로 220", "image": "http://tong.visitkorea.or.kr/cms/resource/06/3356006_image2_1.jpg", "lat": 36.1605559606, "lng": 127.022330555}, {"id": "575072", "title": "지장정사(논산)", "address": "충청남도 논산시 노성면 화곡안길 103", "image": "http://tong.visitkorea.or.kr/cms/resource/37/3356137_image2_1.jpg", "lat": 36.3300409349, "lng": 127.1129262666}, {"id": "1956427", "title": "휴정서원", "address": "충청남도 논산시 부적면 신풍길 87", "image": "http://tong.visitkorea.or.kr/cms/resource/76/3339376_image2_1.jpg", "lat": 36.1819729151, "lng": 127.1789409834}, {"id": "319692", "title": "송불암(논산)", "address": "충청남도 논산시 연산면 황룡재로 92-18", "image": "http://tong.visitkorea.or.kr/cms/resource/89/3334789_image2_1.jpg", "lat": 36.2083401571, "lng": 127.2251055973}, {"id": "1626472", "title": "효암서원", "address": "충청남도 논산시 가야곡면 덕은로470번길 18-6", "image": "http://tong.visitkorea.or.kr/cms/resource/13/3334813_image2_1.jpg", "lat": 36.1656527541, "lng": 127.1901487499}, {"id": "2554368", "title": "연산역 (철도체험학습장)", "address": "충청남도 논산시 연산면 선비로275번길 31-2", "image": "http://tong.visitkorea.or.kr/cms/resource/81/3339181_image2_1.jpg", "lat": 36.2124170413, "lng": 127.2007521095}, {"id": "1956338", "title": "봉곡서원", "address": "충청남도 논산시 연무읍 황화로 290", "image": "http://tong.visitkorea.or.kr/cms/resource/56/3334756_image2_1.jpg", "lat": 36.0984587349, "lng": 127.0933425166}, {"id": "1956315", "title": "노강서원(논산)", "address": "충청남도 논산시 광석면 오강길 56-5", "image": "", "lat": 36.259764949, "lng": 127.0732316987}, {"id": "1940660", "title": "부소담악(추소정)", "address": "충청북도 옥천군 군북면 환산로 518", "image": "https://tong.visitkorea.or.kr/cms/resource_photo/75/3590775_image2_1.jpg", "lat": 36.3522365367, "lng": 127.5636944413}, {"id": "2770314", "title": "장계관광지", "address": "충청북도 옥천군 안내면 장계1길 57", "image": "https://tong.visitkorea.or.kr/cms/resource_photo/22/3438322_image2_1.jpg", "lat": 36.377457, "lng": 127.636589}, {"id": "2664187", "title": "수생식물학습원", "address": "충청북도 옥천군 군북면 방아실길 255", "image": "https://tong.visitkorea.or.kr/cms/resource/94/4071794_image2_1.jpg", "lat": 36.3914245332, "lng": 127.5530516992}, {"id": "753420", "title": "옥천 이지당", "address": "충청북도 옥천군 군북면 이백6길 126", "image": "https://tong.visitkorea.or.kr/cms/resource/26/4071826_image2_1.jpg", "lat": 36.3295181287, "lng": 127.5558725813}, {"id": "127281", "title": "정지용 생가", "address": "충청북도 옥천군 옥천읍 향수길 56", "image": "https://tong.visitkorea.or.kr/cms/resource/16/4041116_image2_1.jpg", "lat": 36.315025897543, "lng": 127.582145468665}, {"id": "3033760", "title": "세산곤충체험농장", "address": "충청북도 옥천군 동이면 세산3길 26-29", "image": "https://tong.visitkorea.or.kr/cms/resource/42/3412042_image2_1.jpg", "lat": 36.27450710448464, "lng": 127.6072638402549}, {"id": "3033891", "title": "친수테마공원", "address": "충청북도 옥천군 옥천읍 죽향리", "image": "https://tong.visitkorea.or.kr/cms/resource/52/3033852_image2_1.jpg", "lat": 36.316972, "lng": 127.581888}, {"id": "756463", "title": "옥천 독락정", "address": "충청북도 옥천군 안남면 연주길 170", "image": "", "lat": 36.3475290559625, "lng": 127.6652616264}, {"id": "4041053", "title": "장령산자연휴양림 숲속동굴", "address": "충청북도 옥천군 군서면 장령산로 519", "image": "https://tong.visitkorea.or.kr/cms/resource/58/4041058_image2_1.jpg", "lat": 36.2448676408954, "lng": 127.554749585611}, {"id": "125890", "title": "용암사(옥천)", "address": "충청북도 옥천군 옥천읍 삼청2길 400", "image": "https://tong.visitkorea.or.kr/cms/resource/41/4041041_image2_1.jpg", "lat": 36.2591906073732, "lng": 127.564290377303}, {"id": "2848240", "title": "시골살이 농촌체험휴양마을", "address": "충청북도 옥천군 청마1길 38-47", "image": "", "lat": 36.309183, "lng": 127.66359}, {"id": "2782452", "title": "옥천 구읍벽화마을", "address": "충청북도 옥천군 옥천읍 하계리", "image": "http://tong.visitkorea.or.kr/cms/resource/45/3581945_image2_1.jpg", "lat": 36.312545697, "lng": 127.5825180784}, {"id": "2848290", "title": "팔음산마을", "address": "충청북도 옥천군 예곡2길 8-12", "image": "http://tong.visitkorea.or.kr/cms/resource/50/3573450_image2_1.jpg", "lat": 36.355906331, "lng": 127.8314085729}, {"id": "2865402", "title": "이원양조장", "address": "충청북도 옥천군 묘목로 113 양조장", "image": "http://tong.visitkorea.or.kr/cms/resource/93/3573393_image2_1.jpg", "lat": 36.2472982794, "lng": 127.6208553269}, {"id": "756476", "title": "청풍정", "address": "충청북도 옥천군 군북면 석호리", "image": "http://tong.visitkorea.or.kr/cms/resource/95/3572895_image2_1.jpg", "lat": 36.3688171939, "lng": 127.5909713406}, {"id": "2782476", "title": "상춘정", "address": "충청북도 옥천군 청성면 산계리", "image": "http://tong.visitkorea.or.kr/cms/resource/12/3572012_image2_1.jpg", "lat": 36.3216451059, "lng": 127.7622184647}, {"id": "1944698", "title": "옥천 육영수 생가", "address": "충청북도 옥천군 옥천읍 향수길 113-6", "image": "http://tong.visitkorea.or.kr/cms/resource/30/2653930_image2_1.jpg", "lat": 36.3179840474, "lng": 127.5871258519}, {"id": "2610563", "title": "둔주봉", "address": "충청북도 옥천군 안남면 연주길 148-18", "image": "http://tong.visitkorea.or.kr/cms/resource/16/3547416_image2_1.jpg", "lat": 36.3519815498, "lng": 127.6645652307}, {"id": "2846309", "title": "배바우청정마을", "address": "충청북도 옥천군 안남면 안남로 495", "image": "http://tong.visitkorea.or.kr/cms/resource/68/2846268_image2_1.png", "lat": 36.3570478486, "lng": 127.6763057105}, {"id": "2633035", "title": "한두레마을", "address": "충청북도 옥천군 청성면 한두레로 387", "image": "http://tong.visitkorea.or.kr/cms/resource/07/2845407_image2_1.jpg", "lat": 36.3252802023, "lng": 127.7289296658}, {"id": "3033746", "title": "문화예술공간 바움", "address": "충청북도 옥천군 옥천읍 마암로 125-16", "image": "http://tong.visitkorea.or.kr/cms/resource/44/3033744_image2_1.jpg", "lat": 36.2906671328, "lng": 127.5540545491}, {"id": "127618", "title": "금강유원지", "address": "충청북도 옥천군 동이면 우산로1길 88-1", "image": "", "lat": 36.2699799791, "lng": 127.6742471687}, {"id": "2996098", "title": "청산공원", "address": "충청북도 옥천군 청산면 교평리", "image": "http://tong.visitkorea.or.kr/cms/resource/93/2996093_image2_1.JPG", "lat": 36.3431460792, "lng": 127.7983202086}, {"id": "3033800", "title": "숲속작은목공방가비뉴", "address": "충청북도 옥천군 안남면 청정3길 54", "image": "http://tong.visitkorea.or.kr/cms/resource/86/3033786_image2_1.jpg", "lat": 36.3675774044, "lng": 127.6876210778}, {"id": "3487508", "title": "옥천군 반려동물 놀이터", "address": "충청북도 옥천군 이원면 장찬리", "image": "", "lat": 36.2497753657, "lng": 127.5980184068}, {"id": "298095", "title": "구절사", "address": "충청북도 옥천군 상중길 226 문화재(전통사찰-구절사)", "image": "http://tong.visitkorea.or.kr/cms/resource/13/3064213_image2_1.JPG", "lat": 36.3050950795, "lng": 127.5002172964}, {"id": "1944693", "title": "옥천 경율당", "address": "충청북도 옥천군 안남면 종미3길 120", "image": "http://tong.visitkorea.or.kr/cms/resource/75/3064275_image2_1.JPG", "lat": 36.3414272868, "lng": 127.6693817572}, {"id": "3033839", "title": "여토도예", "address": "충청북도 옥천군 군북면 성왕로 1824-76", "image": "http://tong.visitkorea.or.kr/cms/resource/36/3033836_image2_1.jpg", "lat": 36.3569464787, "lng": 127.5993042545}, {"id": "2847372", "title": "달빛마을", "address": "충청북도 옥천군 환산로 315-1", "image": "http://tong.visitkorea.or.kr/cms/resource/66/2858066_image2_1.jpg", "lat": 36.3427083572, "lng": 127.5512311595}, {"id": "756456", "title": "높은벌", "address": "충청북도 옥천군 청성면 고당로1길", "image": "http://tong.visitkorea.or.kr/cms/resource/37/3064237_image2_1.JPG", "lat": 36.2847454728, "lng": 127.7027969972}, {"id": "309292", "title": "문수암(옥천)", "address": "충청북도 옥천군 청성면 도장1길 33", "image": "http://tong.visitkorea.or.kr/cms/resource/86/3350086_image2_1.JPG", "lat": 36.3792768519, "lng": 127.7312196422}, {"id": "802472", "title": "옥천 장수마을", "address": "충청북도 옥천군 청성면 장수로1길 79-1", "image": "http://tong.visitkorea.or.kr/cms/resource/23/3334823_image2_1.JPG", "lat": 36.3157871061, "lng": 127.7436036187}, {"id": "1673567", "title": "옥천 석탄리 선돌", "address": "충청북도 옥천군 동이면 안터1길 36", "image": "http://tong.visitkorea.or.kr/cms/resource/54/3339954_image2_1.JPG", "lat": 36.3192650067, "lng": 127.6179036251}, {"id": "2732640", "title": "옥천금강수변 친수공원", "address": "충청북도 옥천군 동이면 금암리", "image": "http://tong.visitkorea.or.kr/cms/resource/08/3336308_image2_1.jpg", "lat": 36.2857443111, "lng": 127.6444188423}, {"id": "2717010", "title": "교동저수지(교동생태습지)", "address": "충청북도 옥천군 옥천읍 교동리", "image": "http://tong.visitkorea.or.kr/cms/resource/29/3336629_image2_1.jpg", "lat": 36.3201448735, "lng": 127.5850176477}, {"id": "2717821", "title": "만양정육점", "address": "충청북도 옥천군 옥천읍 마암로1길 5", "image": "http://tong.visitkorea.or.kr/cms/resource/09/3334909_image2_1.JPG", "lat": 36.292872659, "lng": 127.566531153}, {"id": "2770301", "title": "옥천선사공원", "address": "충청북도 옥천군 옥천읍 지용로 340", "image": "http://tong.visitkorea.or.kr/cms/resource/41/3339941_image2_1.JPG", "lat": 36.3157374968, "lng": 127.6103127329}, {"id": "2847368", "title": "햇다래마을", "address": "충청북도 옥천군 안내수한로 239-7", "image": "http://tong.visitkorea.or.kr/cms/resource/93/3093293_image2_1.jpg", "lat": 36.4052861027, "lng": 127.6387049645}, {"id": "2717818", "title": "옥천성당", "address": "충청북도 옥천군 옥천읍 중앙로 91", "image": "http://tong.visitkorea.or.kr/cms/resource/11/3353811_image2_1.jpg", "lat": 36.304999134, "lng": 127.5711498545}, {"id": "1954409", "title": "옥천 청산향교", "address": "충청북도 옥천군 청산면 교평2길 18", "image": "http://tong.visitkorea.or.kr/cms/resource/54/3350154_image2_1.JPG", "lat": 36.3459235222, "lng": 127.7973479967}, {"id": "1673608", "title": "안터선사공원", "address": "충청북도 옥천군 동이면 안터1길 36", "image": "http://tong.visitkorea.or.kr/cms/resource/37/3350137_image2_1.JPG", "lat": 36.3179651744, "lng": 127.6189202366}, {"id": "1954386", "title": "옥천향교", "address": "충청북도 옥천군 옥천읍 향수8길 8", "image": "http://tong.visitkorea.or.kr/cms/resource/41/3336241_image2_1.jpg", "lat": 36.3179368182, "lng": 127.5864648008}, {"id": "125958", "title": "옥천 후율당", "address": "충청북도 옥천군 안내면 도이길 42", "image": "http://tong.visitkorea.or.kr/cms/resource/26/3334926_image2_1.JPG", "lat": 36.4025564542, "lng": 127.6718131936}, {"id": "125955", "title": "옥천 석탄리 고인돌", "address": "충청북도 옥천군 동이면 안터1길 36", "image": "http://tong.visitkorea.or.kr/cms/resource/01/3339901_image2_1.JPG", "lat": 36.31910115, "lng": 127.6186618954}, {"id": "294369", "title": "가산사", "address": "충청북도 옥천군 안내면 안내회남로 671", "image": "http://tong.visitkorea.or.kr/cms/resource/29/3339929_image2_1.JPG", "lat": 36.4015885618, "lng": 127.5973920906}, {"id": "300077", "title": "대성사(옥천)", "address": "충청북도 옥천군 옥천읍 지용로 142", "image": "http://tong.visitkorea.or.kr/cms/resource/67/3334867_image2_1.JPG", "lat": 36.3167481418, "lng": 127.5907283417}, {"id": "300078", "title": "대성사(이원)", "address": "충청북도 옥천군 이원면 강청길 36-9", "image": "http://tong.visitkorea.or.kr/cms/resource/48/3334848_image2_1.JPG", "lat": 36.2456816692, "lng": 127.6136837878}, {"id": "2768805", "title": "화인산림욕장", "address": "충청북도 옥천군 안남면 안남로 151-66", "image": "http://tong.visitkorea.or.kr/cms/resource/38/3373738_image2_1.JPG", "lat": 36.3824281372, "lng": 127.6683362799}, {"id": "2990390", "title": "농심테마공원", "address": "충청북도 옥천군 옥천동이로 234", "image": "http://tong.visitkorea.or.kr/cms/resource/81/2990381_image2_1.JPG", "lat": 36.299705751, "lng": 127.5966949411}]